[
    {
        "city": "Hong Kong",
        "country": "Hong Kong",
        "latitude": 22.3193,
        "longitude": 114.1694,
        "radius": 18
    },
    {
        "city": "Singapore",
        "country": "Singapore",
        "latitude": 1.3521,
        "longitude": 103.8198,
        "radius": 15
    },
    {
        "city": "Bangkok",
        "country": "Thailand",
        "latitude": 13.7563,
        "longitude": 100.5018,
        "radius": 20
    },
    {
        "city": "London",
        "country": "UK",
        "latitude": 51.5074,
        "longitude": -0.1278,
        "radius": 25
    },
    {
        "city": "Macau",
        "country": "Macau",
        "latitude": 22.1987,
        "longitude": 113.5439,
        "radius": 10
    },
    {
        "city": "Seoul",
        "country": "South Korea",
        "latitude": 37.5665,
        "longitude": 126.9780,
        "radius": 18
    }
]
